Town,Rainfall,Coordinates,Lat,Lon
Hinesburg,6.57,"44.32967432119844, -73.11114912349856",44.32967432119844, -73.11114912349856
"Port Henry, New York",5.62,"44.048413350738436, -73.4598540181587",44.048413350738436, -73.4598540181587
St. Johnsbury,5.03,"44.45707624769735, -72.01783959463242",44.45707624769735, -72.01783959463242
Monkton,4.91,"44.21984308829946, -73.12961834840523",44.21984308829946, -73.12961834840523
Starksboro,4.64,"44.23265039124918, -73.02342991223556",44.23265039124918, -73.02342991223556
Charlotte,4.58,"44.30947514460138, -73.22213097227566",44.30947514460138, -73.22213097227566
"North Stratford, New Hampshire",4.5,"44.743447983297465, -71.62116268787784",44.743447983297465, -71.62116268787784
Sutton,4.35,"44.64945239640955, -72.03476551805487",44.64945239640955, -72.03476551805487
